[
  {
    "id": 1,
    "name": "Short Trip - Ladson",
    "address": "348 College Park Rd, Ladson, SC 29456",
    "phone": "(843) 797-6792",
    "hours": "5am - 12am, 7 days a week",
    "coordinates": { "lat": 33.000607, "lng": -80.090925 }
  },
  {
    "id": 2,
    "name": "Short Trip - Sumter",
    "address": "3880 Patriot Pkwy, Sumter, SC 29154",
    "phone": "(803) 294-0300",
    "hours": "5am - 10pm Mon-Fri, 6am - 10pm Sat, 7am - 8pm Sun",
    "coordinates": { "lat": 33.935857, "lng": -80.441361 }
  },
  {
    "id": 3,
    "name": "Short Trip - Ridgeville",
    "address": "3147 State Rd, Ridgeville, SC 29472",
    "phone": "(843) 688-5800",
    "hours": "5am - 9pm, Mon-Sat, 8am - 8pm Sun",
    "coordinates": { "lat": 33.173869, "lng": -80.207702 }
  },
  {
      "id": 4,
      "name": "Short Trip - St. George",
      "address": "601 N Parler Ave, St. George, SC 29477",
      "phone": "(843) 563-5000",
      "hours": "5am - 10pm, 7 days a week",
      "coordinates": { "lat": 33.207013, "lng": -80.579013 }
  },
  {
      "id": 5,
      "name": "Short Trip - Orangeburg",
      "address": "1000 Chestnut St, Orangeburg, SC 29115",
      "phone": "(803) 531-0000",
      "hours": "5am - 10pm, 7 days a week",
      "coordinates": { "lat": 33.496013, "lng": -80.855013 }
  },
  {
      "id": 6,
      "name": "Short Trip - Walterboro",
      "address": "1000 Sniders Hwy, Walterboro, SC 29488",
      "phone": "(843) 538-0000",
      "hours": "5am - 10pm, 7 days a week",
      "coordinates": { "lat": 32.905013, "lng": -80.655013 }
  },
  {
      "id": 7,
      "name": "Short Trip - Kingstree",
      "address": "1000 N Longstreet St, Kingstree, SC 29556",
      "phone": "(843) 354-0000",
      "hours": "5am - 10pm, 7 days a week",
      "coordinates": { "lat": 33.666013, "lng": -79.850013 }
  },
  {
      "id": 8,
      "name": "Short Trip - Florence",
      "address": "1000 S Irby St, Florence, SC 29501",
      "phone": "(843) 662-0000",
      "hours": "5am - 10pm, 7 days a week",
      "coordinates": { "lat": 34.196013, "lng": -79.765013 }
  },
  {
      "id": 9,
      "name": "Short Trip - Georgetown",
      "address": "1000 N Fraser St, Georgetown, SC 29440",
      "phone": "(843) 546-0000",
      "hours": "5am - 10pm, 7 days a week",
      "coordinates": { "lat": 33.376013, "lng": -79.295013 }
  },
  {
      "id": 10,
      "name": "Short Trip - Conway",
      "address": "1000 3rd Ave, Conway, SC 29526",
      "phone": "(843) 248-0000",
      "hours": "5am - 10pm, 7 days a week",
      "coordinates": { "lat": 33.836013, "lng": -79.050013 }
  },
  {
      "id": 11,
      "name": "Short Trip - Myrtle Beach",
      "address": "1000 3rd Ave, Conway, SC 29526",
      "phone": "(843) 626-0000",
      "hours": "5am - 10pm, 7 days a week",
      "coordinates": { "lat": 33.706013, "lng": -78.890013 }
  },
  {
    "id": 12,
    "name": "Short Trip - Charleston",
    "address": "1000 3rd Ave, Conway, SC 29526",
    "phone": "(843) 723-0000",
    "hours": "5am - 10pm, 7 days a week",
    "coordinates": { "lat": 32.796013, "lng": -79.950013 }
  }
]
